id,name,team,league,city,lat,lon,country_code,league_code,league_pack,short_code,competition_id,season_id,membership_status,secondary_competition_ids
nl-ado-den-haag,WerkTalent Stadion,ADO Den Haag,Eredivisie,The Hague,52.0629,4.3831,nl,nl-eredivisie,netherlands_top_3,ADO,nl-eredivisie,2026-27,active,
nl-ajax,Johan Cruyff Arena,Ajax,Eredivisie,Amsterdam,52.3142,4.9418,nl,nl-eredivisie,netherlands_top_3,AJA,nl-eredivisie,2026-27,active,
nl-alkmaar,AFAS Stadion,Alkmaar,Eredivisie,Alkmaar,52.6127,4.7421,nl,nl-eredivisie,netherlands_top_3,AZA,nl-eredivisie,2026-27,active,
nl-cambuur,Kooi Stadion,Cambuur,Eredivisie,Leeuwarden,53.1926,5.8185,nl,nl-eredivisie,netherlands_top_3,CAM,nl-eredivisie,2026-27,active,
nl-excelsior,Van Donge & De Roo Stadion,Excelsior,Eredivisie,Rotterdam,51.9163,4.5209,nl,nl-eredivisie,netherlands_top_3,EXC,nl-eredivisie,2026-27,active,
nl-feyenoord,De Kuip,Feyenoord,Eredivisie,Rotterdam,51.8938,4.523,nl,nl-eredivisie,netherlands_top_3,FEY,nl-eredivisie,2026-27,active,
nl-sittard,Fortuna Sittard Stadion,Sittard,Eredivisie,Sittard,50.9985,5.8642,nl,nl-eredivisie,netherlands_top_3,SIT,nl-eredivisie,2026-27,active,
nl-ga-eagles,De Adelaarshorst,G.A. Eagles,Eredivisie,Deventer,52.2554,6.1802,nl,nl-eredivisie,netherlands_top_3,GAE,nl-eredivisie,2026-27,active,
nl-groningen,Euroborg,Groningen,Eredivisie,Groningen,53.2054,6.5929,nl,nl-eredivisie,netherlands_top_3,GRO,nl-eredivisie,2026-27,active,
nl-heerenveen,Abe Lenstra Stadion,Heerenveen,Eredivisie,Heerenveen,52.9587,5.9365,nl,nl-eredivisie,netherlands_top_3,HEE,nl-eredivisie,2026-27,active,
nl-nijmegen,Goffertstadion,Nijmegen,Eredivisie,Nijmegen,51.8239,5.8374,nl,nl-eredivisie,netherlands_top_3,NEC,nl-eredivisie,2026-27,active,
nl-zwolle,MAC³PARK Stadion,Zwolle,Eredivisie,Zwolle,52.5168,6.1221,nl,nl-eredivisie,netherlands_top_3,ZWO,nl-eredivisie,2026-27,active,
nl-psv,Philips Stadion,PSV,Eredivisie,Eindhoven,51.4418,5.4674,nl,nl-eredivisie,netherlands_top_3,PSV,nl-eredivisie,2026-27,active,
nl-sparta-rotterdam,Sparta Stadion Het Kasteel,Sparta Rotterdam,Eredivisie,Rotterdam,51.9201,4.433,nl,nl-eredivisie,netherlands_top_3,SPR,nl-eredivisie,2026-27,active,
nl-telstar,BUKO Stadion,Telstar,Eredivisie,Velsen,52.4594,4.6261,nl,nl-eredivisie,netherlands_top_3,TEL,nl-eredivisie,2026-27,active,
nl-twente,De Grolsch Veste,Twente,Eredivisie,Enschede,52.2366,6.8375,nl,nl-eredivisie,netherlands_top_3,TWE,nl-eredivisie,2026-27,active,
nl-utrecht,Stadion Galgenwaard,Utrecht,Eredivisie,Utrecht,52.0783,5.1453,nl,nl-eredivisie,netherlands_top_3,UTR,nl-eredivisie,2026-27,active,
nl-willem-ii,Koning Willem II Stadion,Willem II,Eredivisie,Tilburg,51.5422,5.0664,nl,nl-eredivisie,netherlands_top_3,WIL,nl-eredivisie,2026-27,active,
nl-almere-city,Yanmar Stadion,Almere City,Eerste Divisie,Almere,52.376,5.2227,nl,nl-eerste-divisie,netherlands_top_3,ALM,nl-eerste-divisie,2026-27,active,
nl-den-bosch,Stadion De Vliert,Den Bosch,Eerste Divisie,'s-Hertogenbosch,51.7011,5.3319,nl,nl-eerste-divisie,netherlands_top_3,DBO,nl-eerste-divisie,2026-27,active,
nl-dordrecht,M-Scores Stadion,Dordrecht,Eerste Divisie,Dordrecht,51.8076,4.6782,nl,nl-eerste-divisie,netherlands_top_3,DOR,nl-eerste-divisie,2026-27,active,
nl-eindhoven,Jan Louwers Stadion,Eindhoven,Eerste Divisie,Eindhoven,51.4211,5.4781,nl,nl-eerste-divisie,netherlands_top_3,EIN,nl-eerste-divisie,2026-27,active,
nl-emmen,De Oude Meerdijk,Emmen,Eerste Divisie,Emmen,52.7791,6.9155,nl,nl-eerste-divisie,netherlands_top_3,EMM,nl-eerste-divisie,2026-27,active,
nl-de-graafschap,De Vijverberg,De Graafschap,Eerste Divisie,Doetinchem,51.9657,6.3097,nl,nl-eerste-divisie,netherlands_top_3,DEG,nl-eerste-divisie,2026-27,active,
nl-helmond-sport,GS Staalwerken Stadion,Helmond Sport,Eerste Divisie,Helmond,51.4785,5.6572,nl,nl-eerste-divisie,netherlands_top_3,HEL,nl-eerste-divisie,2026-27,active,
nl-heracles,Asito Stadion,Heracles,Eerste Divisie,Almelo,52.3414,6.6625,nl,nl-eerste-divisie,netherlands_top_3,HER,nl-eerste-divisie,2026-27,active,
nl-jong-ajax,Sportpark De Toekomst,Jong Ajax,Eerste Divisie,Amsterdam,52.3044,4.9592,nl,nl-eerste-divisie,netherlands_top_3,JAJ,nl-eerste-divisie,2026-27,active,
nl-jong-az,AFAS Trainingscomplex,Jong AZ,Eerste Divisie,Alkmaar,52.5047,4.8765,nl,nl-eerste-divisie,netherlands_top_3,JAZ,nl-eerste-divisie,2026-27,active,
nl-jong-psv,TenCate Stadion De Herdgang,Jong PSV,Eerste Divisie,Eindhoven,51.4922,5.4552,nl,nl-eerste-divisie,netherlands_top_3,JPS,nl-eerste-divisie,2026-27,active,
nl-jong-fc-utrecht,Sportcomplex Zoudenbalch,Jong FC Utrecht,Eerste Divisie,Utrecht,52.0859,5.1532,nl,nl-eerste-divisie,netherlands_top_3,JUT,nl-eerste-divisie,2026-27,active,
nl-mvv-maastricht,Stadion De Geusselt,MVV Maastricht,Eerste Divisie,Maastricht,50.855,5.7128,nl,nl-eerste-divisie,netherlands_top_3,MVV,nl-eerste-divisie,2026-27,active,
nl-breda,Rat Verlegh Stadion,Breda,Eerste Divisie,Breda,51.5954,4.7503,nl,nl-eerste-divisie,netherlands_top_3,BRE,nl-eerste-divisie,2026-27,active,
nl-rkc-waalwijk,Mandemakers Stadion,RKC Waalwijk,Eerste Divisie,Waalwijk,51.684,5.0884,nl,nl-eerste-divisie,netherlands_top_3,RKC,nl-eerste-divisie,2026-27,active,
nl-roda-jc,Parkstad Limburg Stadion,Roda JC,Eerste Divisie,Kerkrade,50.8561,6.0055,nl,nl-eerste-divisie,netherlands_top_3,ROD,nl-eerste-divisie,2026-27,active,
nl-top-oss,Frans Heesen Stadion,TOP Oss,Eerste Divisie,Oss,51.7656,5.5327,nl,nl-eerste-divisie,netherlands_top_3,TOP,nl-eerste-divisie,2026-27,active,
nl-vitesse,GelreDome,Vitesse,Eerste Divisie,Arnhem,51.9629,5.8936,nl,nl-eerste-divisie,netherlands_top_3,VIT,nl-eerste-divisie,2026-27,active,
nl-fc-volendam,Kras Stadion,FC Volendam,Eerste Divisie,Volendam,52.4931,5.0689,nl,nl-eerste-divisie,netherlands_top_3,VOL,nl-eerste-divisie,2026-27,active,
nl-vvv-venlo,Seacon Stadion - De Koel,VVV-Venlo,Eerste Divisie,Venlo,51.3589,6.1721,nl,nl-eerste-divisie,netherlands_top_3,VVV,nl-eerste-divisie,2026-27,active,
nl-afc,Sportpark Goed Genoeg,AFC,Tweede Divisie,Amsterdam,52.3357,4.8786,nl,nl-tweede-divisie,netherlands_top_3,AFC,nl-tweede-divisie,2026-27,active,
nl-barendrecht,Sportpark De Bongerd,Barendrecht,Tweede Divisie,Barendrecht,51.8564,4.5366,nl,nl-tweede-divisie,netherlands_top_3,BAR,nl-tweede-divisie,2026-27,active,
nl-gvvv,Sportpark Panhuis,GVVV,Tweede Divisie,Veenendaal,52.0209,5.5574,nl,nl-tweede-divisie,netherlands_top_3,GVV,nl-tweede-divisie,2026-27,active,
nl-hardenberg,Sportpark De Boshoek,Hardenberg,Tweede Divisie,Hardenberg,52.5746,6.616,nl,nl-tweede-divisie,netherlands_top_3,HHC,nl-tweede-divisie,2026-27,active,
nl-hoek,Sportpark Denoek,Hoek,Tweede Divisie,Hoek,51.3107,3.78,nl,nl-tweede-divisie,netherlands_top_3,HOE,nl-tweede-divisie,2026-27,active,
nl-ijsselmeervogels,Sportpark De Westmaat,IJsselmeervogels,Tweede Divisie,Spakenburg,52.2527,5.3755,nl,nl-tweede-divisie,netherlands_top_3,IJS,nl-tweede-divisie,2026-27,active,
nl-jong-almere-city,Yanmar Stadion,Jong Almere City,Tweede Divisie,Almere,52.376,5.2227,nl,nl-tweede-divisie,netherlands_top_3,JAC,nl-tweede-divisie,2026-27,active,
nl-jong-sparta-rotterdam,Sportcomplex Nieuw Terbregge,Jong Sparta Rotterdam,Tweede Divisie,Rotterdam,51.9533,4.5228,nl,nl-tweede-divisie,netherlands_top_3,JSP,nl-tweede-divisie,2026-27,active,
nl-hfc,Sportpark Spanjaardslaan,HFC,Tweede Divisie,Haarlem,52.3897,4.6179,nl,nl-tweede-divisie,netherlands_top_3,HFC,nl-tweede-divisie,2026-27,active,
nl-katwijk,Sportpark De Krom,Katwijk,Tweede Divisie,Katwijk,52.1963,4.4377,nl,nl-tweede-divisie,netherlands_top_3,KAT,nl-tweede-divisie,2026-27,active,
nl-kloetinge,Sportpark Wesselopark,Kloetinge,Tweede Divisie,Kloetinge,51.4952,3.9085,nl,nl-tweede-divisie,netherlands_top_3,KLO,nl-tweede-divisie,2026-27,active,
nl-kozakken-boys,Sportpark De Zwaaier,Kozakken Boys,Tweede Divisie,Werkendam,51.8131,4.8896,nl,nl-tweede-divisie,netherlands_top_3,KOZ,nl-tweede-divisie,2026-27,active,
nl-quick-boys,Sportpark Nieuw Zuid,Quick Boys,Tweede Divisie,Katwijk aan Zee,52.1967,4.402,nl,nl-tweede-divisie,netherlands_top_3,QUI,nl-tweede-divisie,2026-27,active,
nl-rijnsburgse-boys,Sportpark Middelmors,Rijnsburgse Boys,Tweede Divisie,Rijnsburg,52.1902,4.4439,nl,nl-tweede-divisie,netherlands_top_3,RIJ,nl-tweede-divisie,2026-27,active,
nl-rohda-raalte,Sportpark Tijenraan,Rohda Raalte,Tweede Divisie,Raalte,52.3854,6.2641,nl,nl-tweede-divisie,netherlands_top_3,RHR,nl-tweede-divisie,2026-27,active,
nl-spakenburg,Sportpark De Westmaat,Spakenburg,Tweede Divisie,Spakenburg,52.2527,5.3755,nl,nl-tweede-divisie,netherlands_top_3,SPA,nl-tweede-divisie,2026-27,active,
nl-de-treffers,Sportpark Zuid,De Treffers,Tweede Divisie,Groesbeek,51.777,5.9291,nl,nl-tweede-divisie,netherlands_top_3,TRE,nl-tweede-divisie,2026-27,active,
nl-rkav-volendam,KWABO-stadion,RKAV Volendam,Tweede Divisie,Volendam,52.4937,5.0711,nl,nl-tweede-divisie,netherlands_top_3,RKV,nl-tweede-divisie,2026-27,active,
nl-acv-assen,Univé Sportpark,ACV Assen,Nedrykkere,Assen,52.9952273,6.560498,nl,,netherlands_top_3,ACV,,2026-27,relegated,
nl-excelsior-maassluis,Sportpark Dijkpolder,Excelsior Maassluis,Nedrykkere,Maassluis,51.926901,4.2593856,nl,,netherlands_top_3,EXM,,2026-27,relegated,
